{
  "Manaus Brazil": {
    "City": "Manaus",
    "Country": "Brazil",
    "Postal Code": "",
    "Longitude": -60.08916666666667,
    "Phone": "(55) 92-3212-7270",
    "State": "Amazonas",
    "templePageUrl": "https://www.lds.org/church/temples/manaus-brazil?lang=eng",
    "Address": "Avenida Coronel Texeira 3162 Ponta Negra",
    "Latitude": -3.073888888888889,
    "Temple": "Manaus Brazil"
  },
  "Fortaleza Brazil": {
    "City": "Fortaleza",
    "Country": "Brazil",
    "Postal Code": "",
    "Longitude": -38.46083333333333,
    "Phone": "",
    "State": "Cear\u00e1",
    "templePageUrl": "https://www.lds.org/church/temples/fortaleza-brazil?lang=eng",
    "Address": "Avenida Santos Dumont esq Rua Mal. Mascarenhas Morais",
    "Latitude": -3.747777777777778,
    "Temple": "Fortaleza Brazil"
  },
  "Porto Alegre Brazil": {
    "City": "Porto Alegre",
    "Country": "Brazil",
    "Postal Code": "91320-240",
    "Longitude": -51.157777777777774,
    "Phone": "(55) 51-3338-0400",
    "State": "Rio Grande do Sul",
    "templePageUrl": "https://www.lds.org/church/temples/porto-alegre-brazil?lang=eng",
    "Address": "Rua General Salvador Pinheiro 50 Vila Jardim",
    "Latitude": -30.03388888888889,
    "Temple": "Porto Alegre Brazil"
  },
  "Campinas Brazil": {
    "City": "Campinas",
    "Country": "Brazil",
    "Postal Code": "13092-820",
    "Longitude": -47.00111111111111,
    "Phone": "(55) 19-2102-5800",
    "State": "S\u0103o Paulo",
    "templePageUrl": "https://www.lds.org/church/temples/campinas-brazil?lang=eng",
    "Address": "Rua James Esdras Faust 400 Notre Dame",
    "Latitude": -22.89638888888889,
    "Temple": "Campinas Brazil"
  },
  "Curitiba Brazil": {
    "City": "Curitiba",
    "Country": "Brazil",
    "Postal Code": "81200-110",
    "Longitude": -49.341944444444444,
    "Phone": "(55) 41-3204-6650",
    "State": "Paran\u00e1",
    "templePageUrl": "https://www.lds.org/church/temples/curitiba-brazil?lang=eng",
    "Address": "Rua Deputado Heitor Alencar Furtado 3641 Mossungu\u0119",
    "Latitude": -25.441111111111113,
    "Temple": "Curitiba Brazil"
  },
  "Recife Brazil": {
    "City": "Recife",
    "Country": "Brazil",
    "Postal Code": "52060-380",
    "Longitude": -34.91111111111111,
    "Phone": "(55) 81-2129-4300",
    "State": "Pernambuco",
    "templePageUrl": "https://www.lds.org/church/temples/recife-brazil?lang=eng",
    "Address": "Rua Dr. Jos\u00e9 de G\u00f3es 284 Parnamirim",
    "Latitude": -8.036388888888888,
    "Temple": "Recife Brazil"
  },
  "Rio de Janeiro Brazil": {
    "City": "Rio de Janeiro",
    "Country": "Brazil",
    "Postal Code": "",
    "Longitude": -43.39972222222222,
    "Phone": "",
    "State": "Rio de Janeiro",
    "templePageUrl": "https://www.lds.org/church/temples/rio-de-janiero-brazil?lang=eng",
    "Address": "",
    "Latitude": -23.000833333333333,
    "Temple": "Rio de Janeiro Brazil"
  },
  "S\u0103o Paulo Brazil": {
    "City": "S\u0103o Paulo",
    "Country": "Brazil",
    "Postal Code": "05512-900",
    "Longitude": -46.722500000000004,
    "Phone": "(55) 11-3723-7600",
    "State": "S\u0103o Paulo",
    "Address": "Avenida Professor Francisco Morato 2390 Caxingui",
    "Latitude": -23.584999999999997,
    "Temple": "S\u0103o Paulo Brazil"
  }
}